{"type": "FeatureCollection","features": [{"type": "Feature","geometry": {"type": "Point","coordinates": [130.8832277288946, 31.915746287887757]},"properties": {"subType": "Location","placeId": "kazan-1-1","name": "新燃岳","desc": ""}},{"type": "Feature","geometry": {"type": "Point","coordinates": [130.91877209753306, 31.88613043782861]},"properties": {"subType": "Location","placeId": "kazan-1-2","name": "高千穂峰","desc": "(山頂部(マーカーの右隣)に天逆鉾(あめのさかほこ/あまのさかほこ)が立つ)"}},{"type": "Feature","geometry": {"type": "Point","coordinates": [130.862524420474, 31.942340574621923]},"properties": {"subType": "Location","placeId": "kazan-1-3","name": "韓国(からくに)岳","desc": ""}},{"type": "Feature","geometry": {"type": "Point","coordinates": [130.87182134663533, 31.85898888339764]},"properties": {"subType": "Location","placeId": "kazan-1-4","name": "霧島神宮","desc": ""}},{"type": "Feature","geometry": {"type": "Point","coordinates": [130.71798921919714, 31.800426135429625]},"properties": {"subType": "Location","placeId": "kazan-1-5","name": "鹿児島空港","desc": ""}},{"type": "Feature","geometry": {"type": "Point","coordinates": [130.5998001234512, 31.592205234896557]},"properties": {"placeId": "kazan-2-1","subType": "Location","name": "桜島港フェリーターミナル","desc": ""}},{"type": "Feature","geometry": {"type": "Point","coordinates": [130.5417014197552, 31.583963998773115]},"properties": {"subType": "Location","placeId": "kazan-2-2","name": "鹿児島中央駅","desc": ""}},{"type": "Feature","geometry": {"type": "Point","coordinates": [139.10346744004562, 35.233226839995176]},"properties": {"subType": "Location","placeId": "kazan-3-1","name": "箱根湯本駅","desc": ""}},{"type": "Feature","geometry": {"type": "Point","coordinates": [139.04823677402027, 35.250832096265]},"properties": {"subType": "Location","placeId": "kazan-3-2","name": "強羅駅","desc": ""}},{"type": "Feature","geometry": {"type": "Point","coordinates": [139.01989737934795, 35.244468909605814]},"properties": {"subType": "Location","placeId": "kazan-3-3","name": "大涌谷駅","desc": ""}},{"type": "Feature","geometry": {"type": "Point","coordinates": [139.003006257342, 35.20961016253176]},"properties": {"subType": "Location","placeId": "kazan-3-4","name": "芦ノ湖","desc": ""}},{"type": "Feature","geometry": {"type": "Point","coordinates": [138.5278747788361, 36.64549196054269]},"properties": {"subType": "Location","placeId": "kazan-4-1","name": "白根山","desc": ""}},{"type": "Feature","geometry": {"type": "Point","coordinates": [138.53340037598701, 36.62241140184599]},"properties": {"subType": "Location","placeId": "kazan-4-2","name": "本白根山","desc": ""}},{"type": "Feature","geometry": {"type": "Point","coordinates": [138.59665329109245, 36.622980975841315]},"properties": {"subType": "Location","placeId": "kazan-4-3","name": "草津温泉湯畑","desc": ""}},{"type": "Feature","geometry": {"type": "Point","coordinates": [138.5197063796161, 36.409692487925135]},"properties": {"subType": "Location","placeId": "kazan-5-1","name": "浅間山","desc": ""}},{"type": "Feature","geometry": {"type": "Point","coordinates": [138.53670128046477, 36.44507734220387]},"properties": {"subType": "Location","placeId": "kazan-5-2","name": "鬼押出し園(上信越高原国立公園)","desc": "(天明3年(1783年)の浅間山大噴火により大量に流れ出た溶岩と火砕流が冷えて固まってできた景勝地)"}},{"type": "Feature","geometry": {"type": "Point","coordinates": [138.635228889075, 36.34256290626051]},"properties": {"subType": "Location","placeId": "kazan-5-3","name": "軽井沢駅","desc": ""}},{"type": "Feature","geometry": {"type": "Point","coordinates": [138.84914863169098, 36.36264774275678]},"properties": {"subType": "Location","placeId": "kazan-5-4","name": "安中榛名駅","desc": ""}},{"type": "Feature","geometry": {"type": "Point","coordinates": [138.73699863558514, 36.33636255491434]},"properties": {"subType": "Location","placeId": "kazan-5-5","name": "横川駅","desc": ""}},{"type": "Feature","geometry": {"type": "Point","coordinates": [138.74715881221735, 36.2993533624171]},"properties": {"subType": "Location","placeId": "kazan-5-6","name": "妙義山","desc": ""}},{"type": "Feature","geometry": {"type": "Point","coordinates": [138.4636838159096, 36.27791187703474]},"properties": {"subType": "Location","placeId": "kazan-5-7","name": "佐久平駅","desc": ""}},{"type": "Feature","geometry": {"type": "Point","coordinates": [138.866809887121, 36.47570127350317]},"properties": {"subType": "Location","placeId": "kazan-6-1","name": "榛名湖","desc": ""}},{"type": "Feature","geometry": {"type": "Point","coordinates": [138.8780701702586, 36.47714292256054]},"properties": {"subType": "Location","placeId": "kazan-6-2","name": "榛名山","desc": ""}},{"type": "Feature","geometry": {"type": "Point","coordinates": [138.85196227214405, 36.458605452066806]},"properties": {"subType": "Location","placeId": "kazan-6-3","name": "榛名神社","desc": ""}},{"type": "Feature","geometry": {"type": "Point","coordinates": [138.91657998646562, 36.49817704343875]},"properties": {"subType": "Location","placeId": "kazan-6-4","name": "伊香保温泉石段街","desc": ""}},{"type": "Feature","geometry": {"type": "Point","coordinates": [139.17865062396987, 36.55385045931443]},"properties": {"subType": "Location","placeId": "kazan-6-5","name": "赤城山","desc": ""}},{"type": "Feature","geometry": {"type": "Point","coordinates": [139.01295242481913, 36.32260901789304]},"properties": {"subType": "Location","placeId": "kazan-6-6","name": "高崎駅","desc": ""}},{"type": "Feature","geometry": {"type": "Point","coordinates": [139.07271238853676, 36.38328211167931]},"properties": {"subType": "Location","placeId": "kazan-6-7","name": "前橋駅","desc": ""}},{"type": "Feature","geometry": {"type": "Point","coordinates": [139.53233942323976, 34.107550444139726]},"properties": {"subType": "Location","placeId": "kazan-7-1","name": "三宅島","desc": ""}},{"type": "Feature","geometry": {"type": "Point","coordinates": [144.34210044485843, 43.634109443124444]},"properties": {"subType": "Location","placeId": "kazan-9-1","name": "屈斜路湖","desc": "(日本最大のカルデラ湖)"}},{"type": "Feature","geometry": {"type": "Point","coordinates": [144.53226039734122, 43.58962368543431]},"properties": {"subType": "Location","placeId": "kazan-9-2","name": "摩周湖","desc": ""}}]}